[{"_id":"5e998ca79f922330d1b5d2f9","location":{"lat":12.905943481188535,"long":77.59149424731731},"address":"335, J P Nagar Phase 5, J. P. Nagar, Bengaluru, Karnataka 560078, India","flatNo":"12","apartmentName":"d view cafe","landmark":"maranhalli","postalCode":"560078","contactNumber":"9090909090","addressType":"Work","user":"5e8f183cab40e212624b33e4","createdAt":"2020-04-17T11:01:59.046Z","updatedAt":"2020-04-17T11:01:59.046Z","__v":0},{"_id":"5e998f1890d5ea4d672224c7","location":{"lat":12.919545446720004,"long":77.60650523006916},"address":"90 Street 4, Abis, Qism El-Raml, Alexandria Governorate, Egypt","flatNo":"26","apartmentName":"my home","landmark":"btm","postalCode":"560028","contactNumber":"8147058182","addressType":"Home","user":"5e8f176eab40e212624b33df","createdAt":"2020-04-17T11:12:24.214Z","updatedAt":"2020-04-17T11:12:24.214Z","__v":0},{"_id":"5eb26b779a0e0c45798cc8a3","address":"BPL, Venugopal Reddy Layout, Arekere, Bengaluru, Karnataka 560076, India","flatNo":"12","contactNumber":"9090909090","user":"5eb26b159a0e0c45798cc8a1","postalCode":"560076","addressType":"Home","apartmentName":"d view cafe","landmark":"maranhalli","location":{"lat":12.8873175,"long":77.5971665},"createdAt":"2020-05-06T07:47:03.236Z","updatedAt":"2020-05-06T07:47:03.236Z","__v":0},{"_id":"5eb2606330dade7c3cfe04de","address":"House No.67,7th cross ,16 main ,Udupi Garden ,1 stage","flatNo":"#123","contactNumber":"9876543210","user":"5eb25f30c2a1fb4076121db3","postalCode":"560030","addressType":"Home","apartmentName":"Test apartemnet","landmark":"karnatak","location":{"lat":12.919545446720004,"long":77.60650523006916},"createdAt":"2020-05-06T06:59:47.983Z","updatedAt":"2020-05-06T06:59:47.983Z","__v":0},{"_id":"5eb28f7a30dade7c3cfe0509","address":"trade centre buiding (oppreg office), caltex","flatNo":"tdfsdf","contactNumber":"09895999564","user":"5e8f183cab40e212624b33e4","postalCode":"670002","addressType":"Home","apartmentName":"ghjgjh","landmark":"hgfdjhgf","location":{"lat":10.8505159,"long":76.2710833},"createdAt":"2020-05-06T10:20:42.463Z","updatedAt":"2020-05-06T10:20:42.463Z","__v":0},{"_id":"5eb2650030dade7c3cfe04df","address":"BTM 2nd Stage , Bangalore","flatNo":"321","contactNumber":"8102983888","user":"5eb25f30c2a1fb4076121db3","postalCode":"560076","addressType":"Home","apartmentName":"test apa","landmark":"Karnataka","location":{"lat":12.9083215,"long":77.6050777},"createdAt":"2020-05-06T07:19:28.637Z","updatedAt":"2020-05-06T07:19:28.637Z","__v":0},{"_id":"5eb28f7a30dade7c3cfe050a","address":"trade centre buiding (oppreg office), caltex","flatNo":"tdfsdf","contactNumber":"09895999564","user":"5e8f183cab40e212624b33e4","postalCode":"670002","addressType":"Home","apartmentName":"ghjgjh","landmark":"hgfdjhgf","location":{"lat":10.8505159,"long":76.2710833},"createdAt":"2020-05-06T10:20:42.470Z","updatedAt":"2020-05-06T10:20:42.470Z","__v":0},{"_id":"5eb30b3ff954a3261263b9c6","location":{"lat":12.882655154366468,"long":77.55219988524914},"address":"1st Main Road, Navrathan Gardens Gubalala Gate, Narayana Nagar 1st Block, Konanakunte, Bengaluru, Karnataka 560062, India","flatNo":"78","apartmentName":"sai","landmark":"nivas","postalCode":"560063","contactNumber":"8815148099","addressType":"Work","user":"5eaaa391e25c2834e6beaf8c","createdAt":"2020-05-06T19:08:47.524Z","updatedAt":"2020-05-06T19:08:47.524Z","__v":0}]